{"version": 0.6, "generator": "Overpass API 0.7.61.5 4133829e", "osm3s": {"timestamp_osm_base": "2024-01-28T03:51:45Z", "copyright": "The data included in this document is from www.openstreetmap.org. The data is made available under ODbL."}, "elements": [{"type": "node", "id": 338450996, "lat": 30.2685706, "lon": -97.7422257, "tags": {"addr:city": "Austin", "addr:housenumber": "617", "addr:postcode": "78701", "addr:state": "TX", "addr:street": "Congress Avenue", "amenity": "theatre", "internet_access": "yes", "name": "The Hideout Theater"}}, {"type": "node", "id": 338450997, "lat": 30.2682668, "lon": -97.7429695, "tags": {"amenity": "cafe", "brand": "Starbucks", "brand:wikidata": "Q37158", "cuisine": "coffee_shop", "name": "Starbucks", "official_name": "Starbucks Coffee", "opening_hours": "Mo-Fr 05:30-21:00, Sa,Su 06:30-19:00", "takeaway": "yes"}}, {"type": "node", "id": 702200216, "lat": 30.2650345, "lon": -97.743727}, {"type": "node", "id": 1148144462, "lat": 30.2686456, "lon": -97.7423865}, {"type": "node", "id": 1152899913, "lat": 30.267478, "lon": -97.7440007}, {"type": "node", "id": 1152899965, "lat": 30.267688, "lon": -97.7442833}, {"type": "node", "id": 1152899989, "lat": 30.2677335, "lon": -97.743663}, {"type": "node", "id": 1152899993, "lat": 30.2675985, "lon": -97.7431792}, {"type": "node", "id": 1152900003, "lat": 30.2675977, "lon": -97.7439561}, {"type": "node", "id": 1154535703, "lat": 30.2697505, "lon": -97.7492277}, {"type": "node", "id": 1154535705, "lat": 30.269668, "lon": -97.7489178}, {"type": "node", "id": 1154535735, "lat": 30.2693883, "lon": -97.749022}, {"type": "node", "id": 1154535784, "lat": 30.2695766, "lon": -97.7486091}, {"type": "node", "id": 1154535794, "lat": 30.2694193, "lon": -97.7491337}, {"type": "node", "id": 1154535819, "lat": 30.2696589, "lon": -97.7491123}, {"type": "node", "id": 1154535829, "lat": 30.2696728, "lon": -97.7491593}, {"type": "node", "id": 1154535885, "lat": 30.2696138, "lon": -97.7492693}, {"type": "node", "id": 1154535890, "lat": 30.269699, "lon": -97.7490295}, {"type": "node", "id": 1154535927, "lat": 30.2697041, "lon": -97.7492451}, {"type": "node", "id": 1154535941, "lat": 30.2695857, "lon": -97.7488132}, {"type": "node", "id": 1154535943, "lat": 30.2695918, "lon": -97.7491928}, {"type": "node", "id": 1154535950, "lat": 30.2696717, "lon": -97.7492478}, {"type": "node", "id": 1154535976, "lat": 30.2696117, "lon": -97.7487319}, {"type": "node", "id": 1154536100, "lat": 30.269469, "lon": -97.7488578}, {"type": "node", "id": 1154536222, "lat": 30.2694157, "lon": -97.7486707}, {"type": "node", "id": 1154536278, "lat": 30.2696717, "lon": -97.749217}, {"type": "node", "id": 1154536312, "lat": 30.2697088, "lon": -97.7490936}, {"type": "node", "id": 1154536424, "lat": 30.2696508, "lon": -97.749174}, {"type": "node", "id": 1481364381, "lat": 30.2641976, "lon": -97.7467468, "tags": {"alt_name": "3 Forks", "amenity": "restaurant", "check_date:currency:XBT": "2023-12-10", "cuisine": "steak_house", "currency:XBT": "yes", "name": "III Forks", "payment:lightning": "yes", "payment:lightning_contactless": "no", "payment:onchain": "yes", "source": "survey", "survey:date": "2022-10-15"}}, {"type": "node", "id": 1481511086, "lat": 30.2662426, "lon": -97.7460117}, {"type": "node", "id": 1481511087, "lat": 30.2660185, "lon": -97.7460988}, {"type": "node", "id": 1481511088, "lat": 30.2659431, "lon": -97.745829}, {"type": "node", "id": 1481511099, "lat": 30.266254, "lon": -97.7457086}, {"type": "node", "id": 1481633389, "lat": 30.2686611, "lon": -97.7454947, "tags": {"amenity": "restaurant", "name": "Belmont"}}, {"type": "node", "id": 1481848476, "lat": 30.2654151, "lon": -97.748667, "tags": {"addr:housenumber": "419", "addr:street": "West 2nd Street", "amenity": "restaurant"}}, {"type": "node", "id": 1483653960, "lat": 30.2638474, "lon": -97.7418971, "tags": {"addr:city": "Austin", "addr:housenumber": "200", "addr:postcode": "78701", "addr:state": "TX", "addr:street": "San Jacinto Boulevard", "addr:unit": "A", "air_conditioning": "yes", "amenity": "cafe", "cuisine": "crepe;french", "name": "Le Caf\u00e9 Cr\u00eape", "opening_hours": "Mo-Sa 07:00-15:00; Su 08:00-15:00", "outdoor_seating": "yes", "phone": "+1-512-480-0084", "website": "https://www.cafecrepeofaustin.com/"}}, {"type": "node", "id": 1483931073, "lat": 30.2694661, "lon": -97.7435164, "tags": {"amenity": "restaurant", "name": "Perry's Steakhouse"}}, {"type": "node", "id": 1483931115, "lat": 30.2690633, "lon": -97.7421993, "tags": {"addr:housenumber": "701", "addr:postcode": "78701", "addr:street": "Crongress Avenue", "amenity": "restaurant", "cuisine": "steak_house", "name": "Roaring Fork", "wheelchair": "yes"}}, {"type": "node", "id": 1483931163, "lat": 30.2650401, "lon": -97.7437082, "tags": {"amenity": "restaurant", "name": "Congress Avenue Grocery"}}, {"type": "node", "id": 1489699385, "lat": 30.266973, "lon": -97.7456939, "tags": {"amenity": "cafe", "cuisine": "coffee_shop", "internet_access": "wlan", "internet_access:fee": "no", "name": "Halcyon"}}, {"type": "node", "id": 3190877885, "lat": 30.2650419, "lon": -97.7460802, "tags": {"addr:housenumber": "242", "addr:street": "West 2nd Street", "amenity": "cafe", "internet_access": "wlan", "name": "Jo's Coffee", "opening_hours": "Mo-Fr 07:00-18:00; Sa,Su 08:00-18:00", "phone": "+1-512-462-9003"}}, {"type": "node", "id": 3190890891, "lat": 30.2662841, "lon": -97.7431138, "tags": {"addr:housenumber": "401", "addr:street": "Congress Avenue", "amenity": "cafe", "name": "Houndstooth"}}, {"type": "node", "id": 3229820338, "lat": 30.2695674, "lon": -97.7487489}, {"type": "node", "id": 3245051647, "lat": 30.2652966, "lon": -97.7455299, "tags": {"addr:housenumber": "206", "addr:street": "Colorado Street", "amenity": "restaurant", "cuisine": "sushi", "name": "Bar Chi Sushi"}}, {"type": "node", "id": 3245051655, "lat": 30.2658493, "lon": -97.7465097, "tags": {"amenity": "cafe", "brand": "Starbucks", "brand:wikidata": "Q37158", "contact:website": "https://www.starbucks.com/store-locator/store/1006594/3rd-lavaca-301-west-3rd-street-austin-tx-787013815-us", "cuisine": "coffee_shop", "name": "Starbucks", "official_name": "Starbucks Coffee", "takeaway": "yes"}}, {"type": "node", "id": 3245054363, "lat": 30.2651262, "lon": -97.7463264, "tags": {"addr:housenumber": "258", "addr:street": "West 2nd Street", "amenity": "restaurant", "cuisine": "italian", "name": "Taverna"}}, {"type": "node", "id": 3245054365, "lat": 30.2650023, "lon": -97.7459789, "tags": {"addr:street": "West 2nd Street", "amenity": "restaurant", "name": "Cru"}}, {"type": "node", "id": 3245054371, "lat": 30.2656186, "lon": -97.7456335, "tags": {"addr:city": "Austin", "addr:housenumber": "205", "addr:postcode": "78701", "addr:state": "TX", "addr:street": "West 3rd Street", "amenity": "restaurant", "cuisine": "seafood", "name": "Bill's Oyster", "website": "https://www.billsoyster.com/", "website:menu": "https://www.billsoyster.com/menu"}}, {"type": "node", "id": 3248316799, "lat": 30.2656885, "lon": -97.7484551, "tags": {"addr:housenumber": "452", "addr:street": "West 2nd Street", "amenity": "restaurant", "cuisine": "italian"}}, {"type": "node", "id": 3248316800, "lat": 30.2651799, "lon": -97.7479269, "tags": {"amenity": "restaurant", "cuisine": "barbecue", "name": "Lamberts"}}, {"type": "node", "id": 3248316807, "lat": 30.265572, "lon": -97.7477644, "tags": {"addr:housenumber": "400", "addr:street": "West 2nd Street", "amenity": "restaurant", "cuisine": "mexican", "name": "La Condesa"}}, {"type": "node", "id": 3248363283, "lat": 30.2675522, "lon": -97.7494041, "tags": {"addr:city": "Austin", "addr:housenumber": "360", "addr:postcode": "78701", "addr:state": "TX", "addr:street": "Nueces Street", "addr:unit": "Suite 80", "amenity": "restaurant", "cuisine": "poke", "name": "Pok\u00e9 Bowl"}}, {"type": "node", "id": 3353538589, "lat": 30.2692143, "lon": -97.7416617}, {"type": "node", "id": 3353538591, "lat": 30.2693473, "lon": -97.7421384}, {"type": "node", "id": 3353538592, "lat": 30.2694109, "lon": -97.7415882}, {"type": "node", "id": 3353538793, "lat": 30.2695269, "lon": -97.7415448}, {"type": "node", "id": 3353538794, "lat": 30.2695439, "lon": -97.7420648}, {"type": "node", "id": 3353538796, "lat": 30.2696598, "lon": -97.7420215}, {"type": "node", "id": 3354445001, "lat": 30.2667895, "lon": -97.745195}, {"type": "node", "id": 3354445003, "lat": 30.2668097, "lon": -97.7452674}, {"type": "node", "id": 3354445031, "lat": 30.2671179, "lon": -97.7450722}, {"type": "node", "id": 3354445034, "lat": 30.2671381, "lon": -97.7451446}, {"type": "node", "id": 3354471213, "lat": 30.265845, "lon": -97.7438362}, {"type": "node", "id": 3354471216, "lat": 30.2659132, "lon": -97.7440764}, {"type": "node", "id": 3763984362, "lat": 30.264819, "lon": -97.7442485, "tags": {"amenity": "cafe", "name": "Caff\u00e9 Medici"}}, {"type": "node", "id": 3764035157, "lat": 30.2645145, "lon": -97.7443724, "tags": {"addr:city": "Austin", "addr:housenumber": "200", "addr:postcode": "78701", "addr:state": "TX", "addr:street": "Congress Avenue", "air_conditioning": "yes", "amenity": "restaurant", "bar": "yes", "branch": "Austin", "brand": "Fogo de Ch\u00e3o", "brand:wikidata": "Q5464133", "cuisine": "steak_house;brazilian", "level": "0", "name": "Fogo de Ch\u00e3o", "outdoor_seating": "yes", "phone": "+1-512-472-0220", "reservation": "yes", "start_date": "2022-12-23", "takeaway": "yes", "toilets": "yes", "website": "https://fogodechao.com/", "wheelchair": "yes"}}, {"type": "node", "id": 3849775798, "lat": 30.2646193, "lon": -97.7447359, "tags": {"addr:city": "Austin", "addr:housenumber": "200", "addr:postcode": "78701", "addr:state": "TX", "addr:street": "Congress Avenue", "air_conditioning": "yes", "amenity": "restaurant", "branch": "Austin, TX Branch", "brand": "Mason's Famous Lobster Rolls", "cuisine": "seafood", "delivery": "yes", "name": "Mason's Famous Lobster Rolls", "opening_hours": "Mo-Su 11:00-21:00", "outdoor_seating": "yes", "phone": "+1-512-428-4006", "smoking": "no", "website": "https://www.masonslobster.com/"}}, {"type": "node", "id": 3849776324, "lat": 30.264852, "lon": -97.745067, "tags": {"addr:housenumber": "201", "addr:postcode": "78701", "addr:street": "Colorado Street", "amenity": "theatre", "name": "Google Fiber Space", "opening_hours": "Mo-We 10:00-18:00; Th-Sa 10:00-21:00", "phone": "+1-866-777-7550", "website": "https://fiber.google.com/cities/austin/fiberspace/"}}, {"type": "node", "id": 3849776337, "lat": 30.265537, "lon": -97.745401, "tags": {"addr:city": "Austin", "addr:housenumber": "201", "addr:postcode": "78701", "addr:state": "TX", "addr:street": "West 3rd Street", "air_conditioning": "yes", "amenity": "restaurant", "cuisine": "chinese", "name": "Red Farm", "opening_date": "2023-11-08", "phone": "+1-512-859-9700", "reservation": "yes", "toilets": "yes", "website": "https://www.redfarmnyc.com/location/Austin/", "wheelchair": "yes"}}, {"type": "node", "id": 3849778276, "lat": 30.265697, "lon": -97.748514, "tags": {"addr:housenumber": "454", "addr:postcode": "78701", "addr:street": "West 2nd Street", "amenity": "restaurant", "cuisine": "sandwich;american", "name": "Local Foods", "opening_hours": "Mo-Th 10:45-20:00; Fr 10:45-20:30; Sa 09:00-20:30; Su 09:00-20:00", "website": "http://www.localfoodstexas.com/"}}, {"type": "node", "id": 3849778288, "lat": 30.2686128, "lon": -97.7478966, "tags": {"addr:housenumber": "500", "addr:postcode": "78701", "addr:street": "West 5th Street", "amenity": "restaurant", "cuisine": "chinese", "name": "Wu Chow", "opening_hours": "Mo-Fr 11:00-14:00, Mo-Th 17:00-22:00, Fr,Sa 17:00-23:00; Su 11:00-15:00", "website": "https://wuchowaustin.com/"}}, {"type": "node", "id": 3849778796, "lat": 30.2681344, "lon": -97.7425331, "tags": {"addr:city": "Austin", "addr:housenumber": "601", "addr:postcode": "78701", "addr:state": "TX", "addr:street": "Congress Avenue", "addr:unit": "100", "amenity": "cafe", "cuisine": "coffee_shop", "name": "Capital One Caf\u00e9"}}, {"type": "node", "id": 4027267068, "lat": 30.2671399, "lon": -97.7500446, "tags": {"addr:city": "Austin", "addr:housenumber": "360", "addr:postcode": "78701", "addr:state": "TX", "addr:street": "Nueces Street", "addr:unit": "10", "air_conditioning": "yes", "amenity": "restaurant", "name": "Polvo's", "outdoor_seating": "yes", "smoking": "no"}}, {"type": "node", "id": 4103272890, "lat": 30.2695125, "lon": -97.7495273, "tags": {"addr:street": "509 Rio Grande Street", "amenity": "restaurant", "cuisine": "diner", "name": "Holy Roller"}}, {"type": "node", "id": 4304618025, "lat": 30.2646732, "lon": -97.7437945, "tags": {"addr:city": "Austin", "addr:housenumber": "110", "addr:postcode": "78701", "addr:state": "TX", "addr:street": "East 2nd Street", "amenity": "restaurant", "cuisine": "burger", "name": "Burger Bar", "opening_hours": "Su-Th 11:00-01:00; Fr,Sa 11:00-02:00", "phone": "+1-512-608-4822", "website": "https://www.burgerbaraustin.com/"}}, {"type": "node", "id": 4304618029, "lat": 30.2644196, "lon": -97.7438985, "tags": {"amenity": "restaurant", "name": "Corner Restaurant"}}, {"type": "node", "id": 4906380121, "lat": 30.2674422, "lon": -97.742689, "tags": {"addr:housenumber": "503", "addr:postcode": "78701", "addr:street": "Colorado Street", "amenity": "cafe", "cuisine": "breakfast;coffee_shop", "diet:vegetarian": "yes", "name": "My Name Is Joe Coffee", "opening_hours": "Mo-Fr 07:00-15:00", "website": "http://mynameisjoe.com"}}, {"type": "node", "id": 4948072426, "lat": 30.2679982, "lon": -97.7434085, "tags": {"amenity": "restaurant", "brand": "Ruth's Chris Steak House", "brand:wikidata": "Q7382829", "cuisine": "american", "name": "Ruth's Chris Steak House"}}, {"type": "node", "id": 4948072436, "lat": 30.2682677, "lon": -97.7440327, "tags": {"addr:city": "Austin", "addr:housenumber": "123", "addr:postcode": "78701", "addr:state": "TX", "addr:street": "West 6th Street", "air_conditioning": "yes", "amenity": "restaurant", "cuisine": "western", "name": "Lonesome Dove Bistro", "start_date": "2022-03-01", "website": "https://lonesomedoveaustin.com/"}}, {"type": "node", "id": 4948072438, "lat": 30.2684788, "lon": -97.7435626, "tags": {"amenity": "restaurant", "name": "Athenian Bar & Grill"}}, {"type": "node", "id": 5351338222, "lat": 30.2659764, "lon": -97.7495445, "tags": {"addr:postcode": "78701", "addr:street": "West 2nd Street", "amenity": "restaurant", "name": "Flower Child"}}, {"type": "node", "id": 5351366521, "lat": 30.2658145, "lon": -97.7489908, "tags": {"addr:postcode": "78701", "addr:street": "West 2nd Street", "amenity": "restaurant", "name": "North Italia"}}, {"type": "node", "id": 6039859212, "lat": 30.2655237, "lon": -97.7490365, "tags": {"amenity": "restaurant", "cuisine": "brasserie", "name": "Le Politique", "restaurant": "brasserie"}}, {"type": "node", "id": 6039911718, "lat": 30.2656592, "lon": -97.7434871, "tags": {"addr:city": "Austin", "addr:housenumber": "315", "addr:postcode": "78701", "addr:state": "TX", "addr:street": "Congress Avenue", "amenity": "restaurant", "cuisine": "fine_dining", "level": "1", "name": "Swift's Attic", "restaurant": "american", "website": "https://swiftsattic.com/"}}, {"type": "node", "id": 6076756627, "lat": 30.2628029, "lon": -97.744034, "tags": {"amenity": "restaurant", "name": "Arlo Grey"}}, {"type": "node", "id": 6076756630, "lat": 30.2627536, "lon": -97.7436129, "tags": {"amenity": "restaurant", "cuisine": "burger", "name": "Dean's One Trick Pony"}}, {"type": "node", "id": 6795476806, "lat": 30.268145, "lon": -97.7474393}, {"type": "node", "id": 6795476807, "lat": 30.2680993, "lon": -97.747456}, {"type": "node", "id": 6795476808, "lat": 30.26814, "lon": -97.7475974}, {"type": "node", "id": 6795476809, "lat": 30.2681836, "lon": -97.7475812}, {"type": "node", "id": 7024063230, "lat": 30.2667995, "lon": -97.7497783, "tags": {"addr:city": "Austin", "addr:housenumber": "607", "addr:postcode": "78701", "addr:state": "TX", "addr:street": "West 3rd Street", "addr:unit": "115", "air_conditioning": "yes", "amenity": "cafe", "brand": "JuiceLand", "brand:wikidata": "Q123022671", "cuisine": "juice;breakfast", "name": "JuiceLand", "opening_hours": "Mo-Sa 07:00-21:00, Su 08:00-21:00", "website": "https://www.juiceland.com/locations/third-shoal/"}}, {"type": "node", "id": 7024063231, "lat": 30.2668307, "lon": -97.7498946, "tags": {"addr:city": "Austin", "addr:housenumber": "607", "addr:postcode": "78701", "addr:state": "TX", "addr:street": "West 3rd Street", "addr:unit": "110", "amenity": "cafe", "cuisine": "coffee_shop", "name": "Intelligentsia"}}, {"type": "node", "id": 7209704000, "lat": 30.2641304, "lon": -97.7424844}, {"type": "node", "id": 7209704001, "lat": 30.2639603, "lon": -97.7424182}, {"type": "node", "id": 7209704002, "lat": 30.2640428, "lon": -97.7427143}, {"type": "node", "id": 7209704003, "lat": 30.2641805, "lon": -97.7426623}, {"type": "node", "id": 7313191255, "lat": 30.2673156, "lon": -97.7464984, "tags": {"addr:city": "Austin", "addr:housenumber": "400", "addr:postcode": "78701", "addr:state": "TX", "addr:street": "Lavaca Street", "amenity": "restaurant", "cuisine": "american", "name": "Group Therapy", "opening_hours": "Sa-Su 06:30-16:00 \"brunch\"; Mo-Fr 06:30-11:00 \"breakfast\"; Mo-Th,Su 16:00-22:00 \"dinner\"; Fr,Sa 16:00-23:00 \"dinner\"; Mo-Th,Su 22:00-24:00 \"bar only\"; Fr,Sa 23:00-02:00 \"bar only\"", "phone": "+1-888-880-3244", "website": "https://www.hotelzaza.com/austin/dining/group-therapy"}}, {"type": "node", "id": 8090124769, "lat": 30.2652973, "lon": -97.7482013, "tags": {"amenity": "cafe", "cuisine": "coffee_shop;ice_cream", "name": "Yummi Joy", "outdoor_seating": "yes"}}, {"type": "node", "id": 8178233808, "lat": 30.2657244, "lon": -97.7496942, "tags": {"addr:city": "Austin", "addr:housenumber": "110", "addr:postcode": "78701", "addr:state": "TX", "addr:street": "San Antonio Street", "addr:unit": "120", "air_conditioning": "yes", "amenity": "restaurant", "bar": "yes", "cuisine": "tacos", "level": "0", "name": "Torchy's Tacos", "opening_hours": "Su-We 09:00-21:00; Th-Sa 09:00-23:00", "outdoor_seating": "yes", "phone": "+1-512-792-5909", "smoking": "no", "takeaway": "yes"}}, {"type": "node", "id": 8178233810, "lat": 30.2649037, "lon": -97.7492614, "tags": {"addr:city": "Austin", "addr:housenumber": "110", "addr:postcode": "78701", "addr:state": "TX", "addr:street": "San Antonio Street", "addr:unit": "170", "air_conditioning": "yes", "amenity": "restaurant", "bar": "yes", "cuisine": "mexican", "diet:gluten_free": "yes", "name": "ATX Cocina", "phone": "+1-512-263-2322", "website": "https://www.atxcocina.com/"}}, {"type": "node", "id": 8953194870, "lat": 30.2694975, "lon": -97.7486393, "tags": {"artist_name": "Alec Monopoly", "artwork_type": "mural", "tourism": "artwork"}}, {"type": "node", "id": 8955666710, "lat": 30.2687991, "lon": -97.748568, "tags": {"addr:city": "Austin", "addr:housenumber": "500", "addr:postcode": "78701", "addr:state": "TX", "addr:street": "West 5th Street", "air_conditioning": "yes", "amenity": "restaurant", "cuisine": "southern", "name": "Fixe Southern House", "smoking": "no"}}, {"type": "node", "id": 8958597082, "lat": 30.2656556, "lon": -97.7483406, "tags": {"air_conditioning": "yes", "amenity": "cinema", "level": "1", "name": "Violet Crown Cinema", "wheelchair": "yes", "wikidata": "Q43009939"}}, {"type": "node", "id": 8991731246, "lat": 30.2668723, "lon": -97.7500637, "tags": {"addr:city": "Austin", "addr:housenumber": "607", "addr:postcode": "78701", "addr:state": "TX", "addr:street": "West 3rd Street", "addr:unit": "105", "air_conditioning": "yes", "amenity": "restaurant", "cuisine": "fine_dining", "name": "Hestia", "website": "https://hestiaaustin.com/"}}, {"type": "node", "id": 8999352176, "lat": 30.2681792, "lon": -97.7475644, "tags": {"entrance": "yes"}}, {"type": "node", "id": 8999352177, "lat": 30.2681358, "lon": -97.7475817, "tags": {"entrance": "yes"}}, {"type": "node", "id": 9136489517, "lat": 30.2679973, "lon": -97.7431294, "tags": {"addr:housenumber": "522", "addr:postcode": "78701", "addr:street": "Congress Avenue", "amenity": "restaurant", "name": "Velvet Taco"}}, {"type": "node", "id": 9414594813, "lat": 30.2661642, "lon": -97.7457438}, {"type": "node", "id": 9414594814, "lat": 30.2663406, "lon": -97.7459733}, {"type": "node", "id": 9414594815, "lat": 30.2662623, "lon": -97.7457053}, {"type": "node", "id": 9414607026, "lat": 30.2657708, "lon": -97.7447534}, {"type": "node", "id": 9414607029, "lat": 30.2656547, "lon": -97.7447967}, {"type": "node", "id": 9414607030, "lat": 30.2656012, "lon": -97.7446041}, {"type": "node", "id": 9414607031, "lat": 30.2657173, "lon": -97.7445608}, {"type": "node", "id": 9414622822, "lat": 30.2679477, "lon": -97.7435819}, {"type": "node", "id": 9414622823, "lat": 30.2678105, "lon": -97.7430989}, {"type": "node", "id": 9416656303, "lat": 30.2662415, "lon": -97.7450879}, {"type": "node", "id": 9416656304, "lat": 30.2662803, "lon": -97.7452238}, {"type": "node", "id": 9416656305, "lat": 30.2662025, "lon": -97.7452535}, {"type": "node", "id": 9416656306, "lat": 30.2661637, "lon": -97.7451177}, {"type": "node", "id": 9418356269, "lat": 30.2658943, "lon": -97.7438175}, {"type": "node", "id": 9418356271, "lat": 30.2659629, "lon": -97.7440576}, {"type": "node", "id": 9421954118, "lat": 30.2663283, "lon": -97.750336}, {"type": "node", "id": 9421954119, "lat": 30.2662933, "lon": -97.7503486}, {"type": "node", "id": 9421954120, "lat": 30.266254, "lon": -97.7502029}, {"type": "node", "id": 9421954121, "lat": 30.266289, "lon": -97.7501903}, {"type": "node", "id": 9494461576, "lat": 30.2675718, "lon": -97.7443265}, {"type": "node", "id": 9517327252, "lat": 30.2641868, "lon": -97.7424631}, {"type": "node", "id": 9517327255, "lat": 30.2641533, "lon": -97.742346}, {"type": "node", "id": 9517424344, "lat": 30.2656405, "lon": -97.7434924, "tags": {"addr:city": "Austin", "addr:housenumber": "315", "addr:postcode": "78701", "addr:state": "TX", "addr:street": "Congress Avenue", "addr:unit": "100", "air_conditioning": "yes", "amenity": "restaurant", "cuisine": "sushi", "name": "Sushi Junai Omakase", "name:ja": "\u3059\u3057\u7d14\u611b\u304a\u4efb\u305b", "website": "http://sushijunaiomakase.com/"}}, {"type": "node", "id": 9571217690, "lat": 30.2672548, "lon": -97.7471061, "tags": {"addr:city": "Austin", "addr:housenumber": "422", "addr:postcode": "78701", "addr:state": "TX", "addr:street": "Guadalupe Street", "amenity": "marketplace", "email": "info@sustainablefoodcenter.org", "name": "Sustainable Food Center Farmers' Market", "name:es": "Mercado Agr\u00edcola de SFC", "opening_hours": "Sa 09:00-13:00", "operator": "Sustainable Food Center", "operator:abbr": "SFC", "phone": "+1-512-236-0074", "short_name": "SFC Farmers' Market", "website": "https://sustainablefoodcenter.org/farmers-market/downtown"}}, {"type": "node", "id": 9655018609, "lat": 30.2658323, "lon": -97.7500534, "tags": {"addr:city": "Austin", "addr:housenumber": "601", "addr:postcode": "78701", "addr:state": "TX", "addr:street": "West 2nd Street", "air_conditioning": "yes", "amenity": "restaurant", "bar": "yes", "branch": "Austin", "capacity": "159", "check_date": "2023-09-28", "cuisine": "japanese", "diet:meat": "yes", "diet:pescetarian": "yes", "diet:vegetarian": "yes", "level": "0", "name": "Uchib\u0101", "name:ja": "\u5bb6\u30d0\u30fc", "opening_date": "2023-10-06", "opening_hours": "Su-Th 16:00-22:00; Fr-Sa 16:00-23:00", "outdoor_seating": "yes", "phone": "+1-512-916-4808", "reservation": "yes", "smoking": "no", "takeaway": "yes", "toilets": "yes", "website": "https://uchiba.uchirestaurants.com/", "wheelchair": "yes"}}, {"type": "node", "id": 10245293658, "lat": 30.2697418, "lon": -97.7419028, "tags": {"addr:city": "Austin", "addr:housenumber": "721", "addr:postcode": "78701", "addr:state": "TX", "addr:street": "Congress Avenue", "air_conditioning": "yes", "amenity": "restaurant", "cuisine": "texan", "level": "0", "name": "Luminaire", "opening_date": "2023-02-01", "opening_hours": "Mo-Su 06:00-23:00", "outdoor_seating": "yes", "toilets": "yes", "website": "https://www.hyatt.com/hyatt-centric/ausct-hyatt-centric-congress-avenue-austin/dining", "wheelchair": "yes"}}, {"type": "node", "id": 10281193544, "lat": 30.2687274, "lon": -97.7423317, "tags": {"addr:city": "Austin", "addr:housenumber": "621", "addr:postcode": "78701", "addr:state": "TX", "addr:street": "Congress Avenue", "addr:unit": "101", "air_conditioning": "yes", "amenity": "restaurant", "bar": "yes", "cuisine": "american", "level": "0", "name": "Caroline", "opening_hours": "Su-Th 07:00-22:00; Fr-Sa 07:00-23:00", "outdoor_seating": "yes", "reservation": "yes", "takeaway": "yes", "website": "https://www.carolinerestaurant.com/caroline", "wheelchair": "yes"}}, {"type": "node", "id": 10281193549, "lat": 30.2687874, "lon": -97.7421935, "tags": {"addr:city": "Austin", "addr:housenumber": "109", "addr:postcode": "78701", "addr:state": "TX", "addr:street": "East 7th Street", "amenity": "cafe", "name": "The Coffehouse at Caroline", "opening_hours": "Mo-Su 06:00-19:00", "website": "https://www.carolinerestaurant.com/the-coffeehouse-at-caroline"}}, {"type": "node", "id": 10869767154, "lat": 30.2653307, "lon": -97.7435454, "tags": {"addr:city": "Austin", "addr:housenumber": "301", "addr:postcode": "78701", "addr:state": "TX", "addr:street": "Congress Avenue", "amenity": "restaurant", "cuisine": "tacqueria", "name": "Tacodeli", "opening_hours": "Mo-Fr 07:00-15:00; Sa-Su 08:00-15:00", "phone": "+1-512-601-6631", "website": "https://locations.tacodeli.com/tacodeli-5346fd3548f4"}}, {"type": "node", "id": 10969167396, "lat": 30.2655244, "lon": -97.7442323, "tags": {"addr:housenumber": "102", "addr:street": "W 3rd St", "amenity": "restaurant", "cuisine": "greek;mexican", "description": "Greek with a hint of Mexican", "name": "ZIKI", "opening_hours": "Mo-Su 10:00-03:00", "website": "https://ziki.kitchen/"}}, {"type": "node", "id": 11071504905, "lat": 30.2653919, "lon": -97.7428231, "tags": {"addr:housenumber": "105, 301", "amenity": "cafe", "cuisine": "breakfast;mexican", "name": "Mirandas Cafe"}}, {"type": "node", "id": 11071595410, "lat": 30.2658847, "lon": -97.7453973, "tags": {"addr:city": "Austin", "addr:housenumber": "300", "addr:postcode": "78701", "addr:state": "TX", "addr:street": "Colorado Street", "air_conditioning": "yes", "amenity": "restaurant", "bar": "yes", "branch": "Downtown Austin", "check_date": "2023-07-27", "cuisine": "seafood", "name": "Truluck's", "opening_hours": "Mo-Su 16:30-22:00", "phone": "+1-512-482-9000", "website": "https://trulucks.com/locations/downtown-austin-texas/"}}, {"type": "node", "id": 11242814774, "lat": 30.2678241, "lon": -97.7426153, "tags": {"addr:city": "Austin", "addr:housenumber": "515", "addr:postcode": "78701", "addr:state": "TX", "addr:street": "Congress Avenue", "amenity": "restaurant", "brand": "CAVA", "brand:wikidata": "Q85751038", "cuisine": "mediterranean", "name": "CAVA"}}, {"type": "node", "id": 11242814776, "lat": 30.2686227, "lon": -97.7422994}, {"type": "node", "id": 11242814791, "lat": 30.2685903, "lon": -97.7424083}, {"type": "node", "id": 11242814792, "lat": 30.2684879, "lon": -97.7420367}, {"type": "node", "id": 11242814794, "lat": 30.2684642, "lon": -97.7419466}, {"type": "node", "id": 11242814795, "lat": 30.2685219, "lon": -97.7419262}, {"type": "node", "id": 11519400164, "lat": 30.2649013, "lon": -97.7437741}, {"type": "node", "id": 11519417371, "lat": 30.2649705, "lon": -97.7434844}, {"type": "node", "id": 11519417372, "lat": 30.2648374, "lon": -97.7435315}, {"type": "node", "id": 11519417373, "lat": 30.2649246, "lon": -97.7437659, "tags": {"access": "yes", "entrance": "yes", "level": "0"}}, {"type": "node", "id": 11519417374, "lat": 30.2650123, "lon": -97.7437349, "tags": {"access": "yes", "entrance": "yes", "level": "0"}}, {"type": "way", "id": 99868618, "nodes": [1154535890, 1154535705, 1154535735, 1154535794, 1154535890], "tags": {"addr:city": "Austin", "addr:housenumber": "609", "addr:postcode": "78701", "addr:state": "TX", "addr:street": "West 6th Street", "amenity": "restaurant", "building": "retail", "building:levels": "2", "name": "Walton's Fancy & Staple", "website": "https://www.waltonsfancyandstaple.com"}}, {"type": "way", "id": 99868668, "nodes": [1154535976, 3229820338, 1154535941, 1154536100, 1154536222, 8953194870, 1154535784, 1154535976], "tags": {"addr:housenumber": "601", "addr:postcode": "78701", "addr:street": "West 6th Street", "amenity": "restaurant", "building": "yes", "name": "Parlor and Yard"}}, {"type": "way", "id": 99868671, "nodes": [1154535819, 1154536312, 1154535703, 1154535927, 1154536278, 1154535950, 1154535885, 1154535943, 1154536424, 1154535829, 1154535819], "tags": {"addr:housenumber": "613", "addr:postcode": "78701", "addr:street": "West 6th Street", "amenity": "restaurant", "building": "yes", "name": "Hoffbrau Steaks"}}, {"type": "way", "id": 134807229, "nodes": [1481511086, 1481511087, 1481511088, 9414594813, 1481511086], "tags": {"addr:housenumber": "301", "addr:postcode": "78701", "addr:street": "Lavaca Street", "amenity": "restaurant", "building": "retail", "name": "Bob's Steak & Chop House", "opening_hours": "Mo,Tu 16:30-22:00; We,Th 16:30-23:00; Fr,Sa 16:30-24:00"}}, {"type": "way", "id": 328526454, "nodes": [3353538794, 3353538592, 3353538589, 3353538591, 3353538794], "tags": {"addr:city": "Austin", "addr:housenumber": "713", "addr:postcode": "78701", "addr:state": "TX", "addr:street": "Congress Avenue", "amenity": "theatre", "architect": "John Eberson", "building": "yes", "building:levels": "5", "height": "19.2024", "heritage": "yes", "historic": "building", "image": "http://commons.wikimedia.org/wiki/File:Paramount_austin_2012.jpg", "name": "Paramount Theatre", "source:geometry": "Bing", "start_date": "1915-10-11", "website": "https://www.austintheatre.org/", "wikidata": "Q7756086", "wikipedia": "en:Paramount Theatre (Austin, Texas)"}}, {"type": "way", "id": 328526455, "nodes": [3353538796, 3353538793, 3353538592, 3353538794, 3353538796], "tags": {"addr:city": "Austin", "addr:housenumber": "719", "addr:postcode": "78701", "addr:state": "TX", "addr:street": "Congress Avenue", "amenity": "cinema", "building": "yes", "name": "State Theatre", "source:geometry": "Bing", "website": "https://www.austintheatre.org/", "wikidata": "Q42298482"}}, {"type": "way", "id": 328631276, "nodes": [3354445034, 3354445031, 3354445001, 3354445003, 3354445034], "tags": {"addr:city": "Austin", "addr:housenumber": "208", "addr:postcode": "78701", "addr:state": "TX", "addr:street": "West 4th Street", "amenity": "restaurant", "building": "yes", "cuisine": "french", "name": "P\u00e9ch\u00e9", "phone": "+15123798249", "website": "http://www.pecheaustin.com/"}}, {"type": "way", "id": 724582090, "nodes": [6795476806, 6795476807, 8999352177, 6795476808, 6795476809, 8999352176, 6795476806], "tags": {"addr:city": "Austin", "addr:housenumber": "422", "addr:postcode": "78701", "addr:state": "TX", "addr:street": "Guadalupe Street", "addr:unit": "C", "amenity": "cafe", "building": "retail", "building:levels": "1", "cuisine": "american", "name": "Rosen's Bagels", "opening_date": "2019-09-01", "opening_hours": "Mo-Fr 07:00-14:00; Sa-Su 08:00-15:00", "outdoor_seating": "yes", "website": "https://www.rosensbagels.com/"}}, {"type": "way", "id": 772280775, "nodes": [7209704000, 9517327252, 9517327255, 7209704001, 7209704002, 7209704003, 7209704000], "tags": {"addr:city": "Austin", "addr:housenumber": "201", "addr:postcode": "78701", "addr:state": "TX", "addr:street": "Brazos Street", "addr:unit": "A", "air_conditioning": "yes", "amenity": "restaurant", "bar": "yes", "building": "yes", "name": "Cedar Door", "outdoor_seating": "yes", "website": "https://www.cedardooraustin.com/", "wheelchair": "yes"}}, {"type": "way", "id": 1020753276, "nodes": [1481511086, 9414594814, 9414594815, 1481511099, 9414594813, 1481511086], "tags": {"addr:city": "Austin", "addr:housenumber": "301", "addr:postcode": "78701", "addr:state": "TX", "addr:street": "Lavaca Street", "addr:unit": "200", "amenity": "restaurant", "building": "yes", "cuisine": "pizza", "name": "DeSano Pizzeria Napoletana"}}, {"type": "way", "id": 1020753278, "nodes": [9414607026, 9414607029, 9414607030, 9414607031, 9414607026], "tags": {"addr:city": "Austin", "addr:housenumber": "303", "addr:postcode": "78701", "addr:state": "TX", "addr:street": "Colorado Street", "addr:unit": "200", "air_conditioning": "yes", "amenity": "restaurant", "cuisine": "italian", "level": "0", "name": "Red Ash", "outdoor_seating": "no", "phone": "+15123792906", "takeaway": "yes", "website": "http://redashgrill.com/"}}, {"type": "way", "id": 1020754976, "nodes": [9414622822, 9414622823, 1152899993, 1152899989, 9414622822], "tags": {"addr:city": "Austin", "addr:housenumber": "522", "addr:postcode": "78701", "addr:state": "TX", "addr:street": "Congress Avenue", "amenity": "restaurant", "cuisine": "american", "name": "Punch Bowl Social"}}, {"type": "way", "id": 1020979630, "nodes": [9416656304, 9416656305, 9416656306, 9416656303, 9416656304], "tags": {"addr:city": "Austin", "addr:housenumber": "310", "addr:postcode": "78701", "addr:state": "TX", "addr:street": "Colorado Street", "addr:unit": "A", "air_conditioning": "yes", "amenity": "cafe", "building": "yes", "cuisine": "venezuelan", "name": "Cuatro Gato", "outdoor_seating": "yes"}}, {"type": "way", "id": 1021167044, "nodes": [3354471216, 9418356271, 9418356269, 3354471213, 3354471216], "tags": {"amenity": "restaurant", "building": "yes", "cuisine": "italian", "name": "La Traviata", "note": "Temporarily closed", "opening_hours:covid19": "closed"}}, {"type": "way", "id": 1021571018, "nodes": [9421954118, 9421954119, 9421954120, 9421954121, 9421954118], "tags": {"addr:city": "Austin", "addr:housenumber": "202", "addr:postcode": "78701", "addr:state": "TX", "addr:street": "West 2nd Street", "amenity": "restaurant", "bar": "yes", "cuisine": "mexican", "email": "info@lapiscinaaustin.com", "level": "4", "name": "La Piscina Ceviches & Fajitas", "opening_hours": "Mo-Su 11:00-22:00", "phone": "+15126281415", "website": "https://www.properhotel.com/austin/restaurants-bars/la-piscina/"}}, {"type": "way", "id": 1029943785, "nodes": [1152899965, 9494461576, 1152899913, 1152900003, 1152899965], "tags": {"addr:city": "Austin", "addr:housenumber": "501", "addr:postcode": "78701", "addr:state": "TX", "addr:street": "Colorado Street", "air_conditioning": "yes", "amenity": "restaurant", "bar": "yes", "building": "yes", "cuisine": "mexican", "name": "Comedor", "phone": "+15124990977", "website": "https://comedortx.com/"}}, {"type": "way", "id": 1213502018, "nodes": [1148144462, 11242814791, 11242814792, 11242814794, 11242814795, 11242814776, 1148144462], "tags": {"addr:city": "Austin", "addr:housenumber": "617", "addr:postcode": "78701", "addr:state": "TX", "addr:street": "Congress Avenue", "amenity": "cafe", "building": "yes", "cuisine": "coffee_shop", "name": "The Hideout Coffee House"}}, {"type": "way", "id": 1239928162, "nodes": [702200216, 11519417374, 11519417373, 11519400164, 11519417372, 11519417371, 702200216], "tags": {"addr:city": "Austin", "addr:housenumber": "217", "addr:postcode": "78701", "addr:state": "TX", "addr:street": "Congress Avenue", "amenity": "restaurant", "building": "yes", "cuisine": "barbecue", "name": "Cooper's Old Time Pit Bar-B-Que", "opening_hours": "Mo-Su 11:00-24:00", "phone": "+15124744227", "website": "http://coopersbbqaustin.com/"}}]}