{"version": 0.6, "generator": "Overpass API 0.7.61.5 4133829e", "osm3s": {"timestamp_osm_base": "2023-09-27T02:02:36Z", "copyright": "The data included in this document is from www.openstreetmap.org. The data is made available under ODbL."}, "elements": [{"type": "node", "id": 859656886, "lat": 30.4244598, "lon": -97.7507432}, {"type": "node", "id": 859656888, "lat": 30.4243429, "lon": -97.7505154}, {"type": "node", "id": 859656890, "lat": 30.4241669, "lon": -97.7506369}, {"type": "node", "id": 859656892, "lat": 30.4242838, "lon": -97.7508647}, {"type": "node", "id": 863464609, "lat": 30.4229084, "lon": -97.7555388}, {"type": "node", "id": 863464610, "lat": 30.4227219, "lon": -97.7553612}, {"type": "node", "id": 863464611, "lat": 30.4228296, "lon": -97.7552332}, {"type": "node", "id": 863464612, "lat": 30.4228369, "lon": -97.7552266}, {"type": "node", "id": 863464627, "lat": 30.4229393, "lon": -97.7550995}, {"type": "node", "id": 863464629, "lat": 30.4230084, "lon": -97.7551824}, {"type": "node", "id": 863464631, "lat": 30.423006, "lon": -97.7552901}, {"type": "node", "id": 863464635, "lat": 30.4229846, "lon": -97.7552929}, {"type": "node", "id": 863464637, "lat": 30.4229894, "lon": -97.7554255}, {"type": "node", "id": 7261891932, "lat": 30.4287632, "lon": -97.7504492, "tags": {"addr:city": "Austin", "addr:housenumber": "12221", "addr:postcode": "78727", "addr:state": "TX", "addr:street": "Riata Trace Parkway", "addr:unit": "190", "amenity": "restaurant", "cuisine": "chinese;vietnamese", "name": "Minh's Cafe", "phone": "+1-512-249-6464"}}, {"type": "way", "id": 72378672, "nodes": [859656886, 859656888, 859656890, 859656892, 859656886], "tags": {"addr:housenumber": "11910", "addr:postcode": "78759", "addr:street": "Research Boulevard", "amenity": "restaurant", "building": "yes", "name": "Catfish Parlour"}}, {"type": "way", "id": 72727273, "nodes": [863464609, 863464610, 863464611, 863464612, 863464627, 863464629, 863464631, 863464635, 863464637, 863464609], "tags": {"addr:housenumber": "11835", "addr:postcode": "78759", "amenity": "restaurant", "building": "yes", "name": "Jollyville Bar & Grill"}}]}