{"version": 0.6, "generator": "Overpass API 0.7.61.5 4133829e", "osm3s": {"timestamp_osm_base": "2024-01-28T03:50:45Z", "copyright": "The data included in this document is from www.openstreetmap.org. The data is made available under ODbL."}, "elements": [{"type": "node", "id": 668901053, "lat": 30.2031437, "lon": -97.8058485}, {"type": "node", "id": 668901072, "lat": 30.2030935, "lon": -97.8056583}, {"type": "node", "id": 668901092, "lat": 30.2033106, "lon": -97.8057896}, {"type": "node", "id": 668901164, "lat": 30.2032605, "lon": -97.8055994}, {"type": "node", "id": 5771770545, "lat": 30.2053557, "lon": -97.8063095, "tags": {"addr:city": "Austin", "addr:housenumber": "6711", "addr:postcode": "78745", "addr:state": "TX", "addr:street": "Manchaca Road", "amenity": "cafe", "name": "Summer Moon Coffee Bar", "opening_hours": "Mo-Fr 06:00-20:00, Sa-Su 08:00-20:00"}}, {"type": "way", "id": 52697901, "nodes": [668901092, 668901053, 668901072, 668901164, 668901092], "tags": {"addr:housenumber": "1940", "addr:postcode": "78745", "addr:street": "West William Cannon Drive", "amenity": "restaurant", "building": "yes", "cuisine": "mexican", "name": "Beto\u2019s"}}]}