{"version": 0.6, "generator": "Overpass API 0.7.61.5 4133829e", "osm3s": {"timestamp_osm_base": "2023-11-07T05:19:14Z", "copyright": "The data included in this document is from www.openstreetmap.org. The data is made available under ODbL."}, "elements": [{"type": "node", "id": 860573218, "lat": 30.3707493, "lon": -97.7277138}, {"type": "node", "id": 860573219, "lat": 30.3706007, "lon": -97.7277835}, {"type": "node", "id": 860573220, "lat": 30.3704935, "lon": -97.7275023}, {"type": "node", "id": 860573221, "lat": 30.3706327, "lon": -97.7274195}, {"type": "node", "id": 2528868982, "lat": 30.3723167, "lon": -97.7271869, "tags": {"amenity": "restaurant", "brand": "Chili's", "brand:wikidata": "Q1072948", "brand:wikipedia": "en:Chili's", "cuisine": "tex-mex", "name": "Chili's", "official_name": "Chili's Grill & Bar"}}, {"type": "node", "id": 7255870318, "lat": 30.3715088, "lon": -97.7245372, "tags": {"addr:city": "Austin", "addr:housenumber": "9012", "addr:postcode": "78758", "addr:state": "TX", "addr:street": "Research Boulevard", "air_conditioning": "yes", "amenity": "cafe", "indoor_seating": "yes", "name": "Emerald Tavern Games", "opening_hours": "Su 11:00-21:00; Mo off; Tu-Th 11:00-23:00; Fr,Sa 11:00-24:00", "outdoor_seating": "yes", "phone": "+1-512-994-4649", "website": "https://www.emeraldtaverngames.com/"}}, {"type": "node", "id": 10876576985, "lat": 30.3711681, "lon": -97.7247135, "tags": {"addr:city": "Austin", "addr:housenumber": "9012", "addr:postcode": "78758", "addr:state": "TX", "addr:street": "Research Boulevard", "addr:unit": "C-6", "amenity": "restaurant", "cuisine": "mexican", "diet:vegan": "only", "name": "Nissi Vegan M\u00e9xican Cuisine", "opening_hours": "Mo-Sa 11:00-20:00", "website": "https://www.nissivegmex.com/"}}, {"type": "way", "id": 72491603, "nodes": [860573218, 860573219, 860573220, 860573221, 860573218], "tags": {"amenity": "restaurant", "building": "yes", "name": "Trudy's"}}]}